[
  {
    "Id": 5,
    "Name": "Yokine",
    "Address": "Parking lot, 10 Wordsworth Ave, Yokine WA 6060, Australia",
    "Latitude": -31.907931678521077,
    "Longitude": 115.85725724853516,
    "DefaultJobType": "Delivery"
  },
  {
    "Id": 6,
    "Name": "Wembley Downs",
    "Address": "2A Kylie St, Wembley Downs WA 6019, Australia",
    "Latitude": -31.916966066537213,
    "Longitude": 115.77966630615235,
    "DefaultJobType": "Delivery"
  },
  {
    "Id": 7,
    "Name": "Claremont",
    "Address": "8 Warden St, Claremont WA 6010, Australia",
    "Latitude": -31.977852166925867,
    "Longitude": 115.78859269775391,
    "DefaultJobType": "Delivery"
  },
  {
    "Id": 8,
    "Name": "Hilton",
    "Address": "238 Carrington St, Hilton WA 6163, Australia",
    "Latitude": -32.067890779495066,
    "Longitude": 115.77934357159035,
    "DefaultJobType": "Delivery"
  },
  {
    "Id": 9,
    "Name": "Beeliar",
    "Address": "15 Giralia Gardens, Beeliar WA 6164, Australia",
    "Latitude": -32.1301304016415,
    "Longitude": 115.81161591045753,
    "DefaultJobType": "Delivery"
  },
  {
    "Id": 10,
    "Name": "Banjup",
    "Address": "275 Liddelow Rd, Banjup WA 6164, Australia",
    "Latitude": -32.1583278461949,
    "Longitude": 115.88955017559425,
    "DefaultJobType": "Delivery"
  },
  {
    "Id": 11,
    "Name": "Atwell",
    "Address": "22B Halcyon Way, Atwell WA 6164, Australia",
    "Latitude": -32.146277731217715,
    "Longitude": 115.86516608416879,
    "DefaultJobType": "Delivery"
  },
  {
    "Id": 12,
    "Name": "Kenwick",
    "Address": "408 Bickley Rd, Kenwick WA 6107, Australia",
    "Latitude": -32.02793696394367,
    "Longitude": 115.98672817024955,
    "DefaultJobType": "Delivery"
  },
  {
    "Id": 13,
    "Name": "West Perth",
    "Address": "100 Railway St, West Perth WA 6005, Australia",
    "Latitude": -31.94377257470926,
    "Longitude": 115.84592759765626,
    "DefaultJobType": "Delivery"
  },
  {
    "Id": 14,
    "Name": "East Victoria Park",
    "Address": "155 Hubert St, East Victoria Park WA 6101, Australia",
    "Latitude": -31.990373966529344,
    "Longitude": 115.90978562988282,
    "DefaultJobType": "Delivery"
  },
  {
    "Id": 15,
    "Name": "Booragoon",
    "Address": "Karoonda Reserve, Karoonda Rd, Booragoon WA 6154, Australia",
    "Latitude": -32.040444069869196,
    "Longitude": 115.84043443359376,
    "DefaultJobType": "Delivery"
  },
  {
    "Id": 16,
    "Name": "Como",
    "Address": "3 Amery St, Como WA 6152, Australia",
    "Latitude": -32.00231176510487,
    "Longitude": 115.8648103491211,
    "DefaultJobType": "Delivery"
  },
  {
    "Id": 17,
    "Name": "Parkwood",
    "Address": "81 Lyndale Ave, Parkwood WA 6147, Australia",
    "Latitude": -32.051502378918464,
    "Longitude": 115.9142488256836,
    "DefaultJobType": "Delivery"
  },
  {
    "Id": 18,
    "Name": "Willetton",
    "Address": "21 Collins Rd, Willetton WA 6155, Australia",
    "Latitude": -32.054703219017014,
    "Longitude": 115.8919328466797,
    "DefaultJobType": "Delivery"
  },
  {
    "Id": 19,
    "Name": "Bull Creek",
    "Address": "7 Tully Ct, Bull Creek WA 6149, Australia",
    "Latitude": -32.05906782052091,
    "Longitude": 115.86412370361329,
    "DefaultJobType": "Delivery"
  },
  {
    "Id": 20,
    "Name": "Leeming",
    "Address": "10 Dimond Ct, Leeming WA 6149, Australia",
    "Latitude": -32.08146949666493,
    "Longitude": 115.86618364013673,
    "DefaultJobType": "Delivery"
  },
  {
    "Id": 21,
    "Name": "Murdoch",
    "Address": "Suite 10, Ground Floor, Medical Clinic, St John of God Hospital Murdoch, 100 Mu, Murdoch WA 6150, Australia",
    "Latitude": -32.07070573983869,
    "Longitude": 115.84180772460938,
    "DefaultJobType": "Delivery"
  },
  {
    "Id": 22,
    "Name": "Jandakot",
    "Address": "7 Jandakot Rd, Jandakot WA 6164, Australia",
    "Latitude": -32.10822793841875,
    "Longitude": 115.86137712158204,
    "DefaultJobType": "Delivery"
  },
  {
    "Id": 23,
    "Name": "Canning Vale",
    "Address": "9 Brookside Square, Canning Vale WA 6155, Australia",
    "Latitude": -32.09048680363718,
    "Longitude": 115.92180192626954,
    "DefaultJobType": "Delivery"
  },
  {
    "Id": 24,
    "Name": "Huntingdale",
    "Address": "10 Hannan Pl, Huntingdale WA 6110, Australia",
    "Latitude": -32.08001500898984,
    "Longitude": 115.9688371435547,
    "DefaultJobType": "Delivery"
  },
  {
    "Id": 25,
    "Name": "Thornlie",
    "Address": "20 Culligan Rd, Thornlie WA 6108, Australia",
    "Latitude": -32.05819491687757,
    "Longitude": 115.96094072021485,
    "DefaultJobType": "Delivery"
  },
  {
    "Id": 26,
    "Name": "Maddington",
    "Address": "28 Clifton St, Maddington WA 6109, Australia",
    "Latitude": -32.048592427124504,
    "Longitude": 115.98806321777344,
    "DefaultJobType": "Delivery"
  },
  {
    "Id": 27,
    "Name": "Cannington",
    "Address": "1371F Albany Hwy, Cannington WA 6107, Australia",
    "Latitude": -32.02152544443688,
    "Longitude": 115.93450486816407,
    "DefaultJobType": "Delivery"
  },
  {
    "Id": 28,
    "Name": "Welshpool",
    "Address": "242 Treasure Rd, Welshpool WA 6106, Australia",
    "Latitude": -31.996197477042998,
    "Longitude": 115.9468644873047,
    "DefaultJobType": "Delivery"
  },
  {
    "Id": 29,
    "Name": "Bentley",
    "Address": "25-27 Lawson St, Bentley WA 6102, Australia",
    "Latitude": -32.01075463545504,
    "Longitude": 115.90017259277344,
    "DefaultJobType": "Delivery"
  },
  {
    "Id": 30,
    "Name": "Wattle Grove",
    "Address": "31 Marloo St, Wattle Grove WA 6107, Australia",
    "Latitude": -32.002020617775656,
    "Longitude": 115.98840654052735,
    "DefaultJobType": "Delivery"
  },
  {
    "Id": 31,
    "Name": "Forrestfield",
    "Address": "U7/369 Holmes Rd, Forrestfield WA 6058, Australia",
    "Latitude": -31.988918031126936,
    "Longitude": 116.01621568359376,
    "DefaultJobType": "Delivery"
  },
  {
    "Id": 32,
    "Name": "Kewdale",
    "Address": "13 Connaughton St, Kewdale WA 6105, Australia",
    "Latitude": -31.974648641373424,
    "Longitude": 115.9358781591797,
    "DefaultJobType": "Delivery"
  },
  {
    "Id": 33,
    "Name": "Perth Airport",
    "Address": "2XWF\u002BX2 Perth Airport WA, Australia",
    "Latitude": -31.952512137313455,
    "Longitude": 115.97261369384766,
    "DefaultJobType": "Delivery"
  },
  {
    "Id": 34,
    "Name": "Redcliffe",
    "Address": "25 McKeon St, Redcliffe WA 6104, Australia",
    "Latitude": -31.94260723688611,
    "Longitude": 115.94308793701173,
    "DefaultJobType": "Delivery"
  },
  {
    "Id": 35,
    "Name": "Belmont",
    "Address": "150 State Route 55, Belmont WA 6104, Australia",
    "Latitude": -31.954259950071815,
    "Longitude": 115.92695176757813,
    "DefaultJobType": "Delivery"
  },
  {
    "Id": 36,
    "Name": "High Wycombe",
    "Address": "74 Golden Cres, High Wycombe WA 6057, Australia",
    "Latitude": -31.94944468007517,
    "Longitude": 116.00541626824334,
    "DefaultJobType": "Delivery"
  }
]